%time,field.header.seq,field.header.stamp,field.header.frame_id,field.pose.position.x,field.pose.position.y,field.pose.position.z,field.pose.orientation.x,field.pose.orientation.y,field.pose.orientation.z,field.pose.orientation.w
1610713935124130032,77,1610713935123870499,crazyflie/base_link,-0.00565302325412631,-0.008694637566804886,0.00011890960740856826,-0.004151311703026295,0.0027675412129610777,-0.0,0.9999875426292419
1610713935132732666,78,1610713935132503884,crazyflie/base_link,-0.00571875274181366,-0.008695430122315884,0.0001144545094575733,-0.004151311703026295,0.0013837706064805388,-0.0,0.9999904036521912
1610713935147626007,79,1610713935147325028,crazyflie/base_link,-0.005636757705360651,-0.008313488215208054,0.0004075276374351233,-0.005535082425922155,0.0027675412129610777,-0.0,0.9999808073043823
1610713935154865137,80,1610713935153987769,crazyflie/base_link,-0.0055370270274579525,-0.00797800999134779,0.0002633871336001903,-0.006918853148818016,0.0027675412129610777,0.0,0.9999722242355347
1610713935163156057,81,1610713935162899478,crazyflie/base_link,-0.00530401524156332,-0.007663322612643242,0.00011270678805885836,-0.00830262340605259,0.004151311703026295,0.0013837706064805388,0.999955952167511
1610713935173210085,82,1610713935173057833,crazyflie/base_link,-0.005022219382226467,-0.007610715460032225,0.00026400777278468013,-0.00830262340605259,0.005535082425922155,0.0027675412129610777,0.9999463558197021
1610713935186285951,83,1610713935186042643,crazyflie/base_link,-0.004713058937340975,-0.007488958537578583,5.437743675429374e-05,-0.00830262340605259,0.006918853148818016,0.004151311703026295,0.9999329447746277
1610713935204718191,84,1610713935204551650,crazyflie/base_link,-0.004212067928165197,-0.007528853602707386,-5.1871487812604755e-05,-0.006918853148818016,0.00830262340605259,0.004151311703026295,0.9999329447746277
1610713935213653027,85,1610713935213448085,crazyflie/base_link,-0.004016165621578693,-0.00775179686024785,-0.00016544728714507073,-0.005535082425922155,0.009686394594609737,0.005535082425922155,0.9999224543571472
1610713935224494986,86,1610713935224323052,crazyflie/base_link,-0.0040069930255413055,-0.008217403665184975,-0.0004711112123914063,-0.0027675412129610777,0.00830262340605259,0.006918853148818016,0.9999377727508545
1610713935232753471,87,1610713935232547047,crazyflie/base_link,-0.004018202889710665,-0.008165017701685429,-0.0003164402151014656,-0.0027675412129610777,0.00830262340605259,0.006918853148818016,0.9999377727508545
1610713935245489657,88,1610713935245182129,crazyflie/base_link,-0.004010431934148073,-0.007435926701873541,0.005596150644123554,-0.006918853148818016,0.006918853148818016,0.0027675412129610777,0.999948263168335
1610713935254126453,89,1610713935253691638,crazyflie/base_link,-0.0044231051579117775,-0.00659788865596056,0.0051594143733382225,-0.012453935109078884,0.004151311703026295,-0.004151311703026295,0.9999052286148071
1610713935264635517,90,1610713935264358218,crazyflie/base_link,-0.005229948088526726,-0.005691273137927055,0.003115651896223426,-0.017989017069339752,0.0,-0.009686394594609737,0.9997912645339966
1610713935273101859,91,1610713935272858418,crazyflie/base_link,-0.0022228506859391928,-0.005679898429661989,0.01348827127367258,-0.019372789189219475,0.004151311703026295,0.013837706297636032,0.9997079372406006
1610713935284110092,92,1610713935283849216,crazyflie/base_link,0.005007748957723379,-0.007292808033525944,-0.005653162952512503,-0.01660524681210518,0.017989017069339752,0.08025868982076645,0.9964733719825745
1610713935292473848,93,1610713935292219647,crazyflie/base_link,0.007059969007968903,-0.005888698156923056,-0.0003561745979823172,-0.019372789189219475,0.019372789189219475,0.06780476123094559,0.9973223805427551
1610713935304658000,94,1610713935304446526,crazyflie/base_link,0.009267223067581654,-0.0035804924555122852,-0.005221146158874035,-0.024907870218157768,0.020756559446454048,0.04704819992184639,0.9983662962913513
1610713935314006728,95,1610713935313657749,crazyflie/base_link,0.010863753035664558,-0.0021868101321160793,-0.001767768175341189,-0.02629164233803749,0.019372789189219475,0.023524099960923195,0.9991896748542786
1610713935324806455,96,1610713935324505146,crazyflie/base_link,0.01192830316722393,0.0003408077172935009,-0.017327891662716866,-0.031826723366975784,0.017989017069339752,-0.02214032970368862,0.9990862011909485
1610713935335133461,97,1610713935334900640,crazyflie/base_link,0.013673081062734127,0.0022362275049090385,-0.025237660855054855,-0.03044295310974121,0.01660524681210518,-0.029059182852506638,0.9989759922027588
1610713935343876865,98,1610713935343638395,crazyflie/base_link,0.01654951460659504,0.004705845844000578,-0.019524574279785156,-0.031826723366975784,0.013837706297636032,-0.06642098724842072,0.9971879720687866
1610713935363380846,99,1610713935363200127,crazyflie/base_link,0.020404785871505737,0.013799980282783508,-0.05577029660344124,-0.035978034138679504,0.01660524681210518,-0.0,0.9992145895957947
1610713935371767743,100,1610713935371613490,crazyflie/base_link,0.021161209791898727,0.020677335560321808,-0.06984829157590866,-0.03321049362421036,0.019372789189219475,0.10378279536962509,0.9938565492630005
1610713935386581157,101,1610713935386439887,crazyflie/base_link,0.028666747733950615,0.027317475527524948,-0.047303300350904465,-0.03321049362421036,0.013837706297636032,0.07333984225988388,0.9966578483581543
1610713935406698971,102,1610713935406537225,crazyflie/base_link,0.03527190908789635,0.03672584146261215,-0.050687275826931,-0.024907870218157768,0.0013837706064805388,0.08025868982076645,0.9964618682861328
1610713935413711387,103,1610713935413547157,crazyflie/base_link,0.03831165283918381,0.04037663713097572,-0.0585700161755085,-0.02214032970368862,-0.004151311703026295,0.07057230174541473,0.9972522854804993
1610713935425958242,104,1610713935425772860,crazyflie/base_link,0.04605301469564438,0.042226728051900864,-0.03982635959982872,-0.012453935109078884,-0.017989017069339752,0.013837706297636032,0.999664843082428
1610713935432728910,105,1610713935432550256,crazyflie/base_link,0.04970719292759895,0.043992310762405396,-0.03773747384548187,-0.005535082425922155,-0.027675412595272064,-0.005535082425922155,0.9995863437652588
1610713935443194977,106,1610713935442933044,crazyflie/base_link,0.05770432576537132,0.043694790452718735,-0.01805206388235092,0.005535082425922155,-0.040129344910383224,-0.058118365705013275,0.997487485408783
1610713935453796737,107,1610713935453478302,crazyflie/base_link,0.060104407370090485,0.03879426792263985,-0.018565651029348373,0.01660524681210518,-0.05119951069355011,-0.09409639984369278,0.9941070079803467
1610713935464443984,108,1610713935464302701,crazyflie/base_link,0.05269377678632736,0.03009084425866604,-0.0343591570854187,0.027675412595272064,-0.07057230174541473,-0.11208542436361313,0.9908029437065125
1610713935475003652,109,1610713935474793071,crazyflie/base_link,0.05900954827666283,0.00628542248159647,-0.05193488299846649,0.04289688542485237,-0.07472360879182816,-0.24215984344482422,0.966403067111969
1610713935484472465,110,1610713935484212762,crazyflie/base_link,0.08035620301961899,0.01810026355087757,0.005770392715930939,0.03459426388144493,-0.06365344673395157,-0.2850567400455475,0.955768883228302
1610713935492814411,111,1610713935492697024,crazyflie/base_link,0.08149809390306473,0.010724800638854504,0.012144969776272774,0.040129344910383224,-0.06780476123094559,-0.31826722621917725,0.9447212219238281
1610713935503391571,112,1610713935503200623,crazyflie/base_link,0.09248701483011246,-0.019859645515680313,-0.0017976220697164536,0.05119951069355011,-0.06088590621948242,-0.48847100138664246,0.8689462542533875
1610713935514088290,113,1610713935513936977,crazyflie/base_link,0.1104806661605835,-0.031624726951122284,0.026852235198020935,0.04428065940737724,-0.04289688542485237,-0.5964051485061646,0.8003123998641968
1610713935522655488,114,1610713935522482974,crazyflie/base_link,0.09873075783252716,-0.017064504325389862,0.05152122303843498,0.03736180439591408,-0.04289688542485237,-0.4801683723926544,0.8753297924995422
1610713935532471192,115,1610713935532371319,crazyflie/base_link,0.06417566537857056,0.01631183922290802,0.0662924274802208,0.02629164233803749,-0.0567345917224884,-0.16190116107463837,0.9848238229751587
1610713935544867831,116,1610713935544707517,crazyflie/base_link,0.05477239564061165,0.02619786001741886,0.057037629187107086,0.009686394594609737,-0.05258328467607498,-0.058118365705013275,0.9968768358230591
1610713935553167495,117,1610713935552997919,crazyflie/base_link,0.03816166892647743,0.030622610822319984,0.05065460130572319,0.0013837706064805388,-0.0567345917224884,0.04428065940737724,0.9974058866500854
1610713935563662132,118,1610713935563458385,crazyflie/base_link,0.03231312334537506,0.03511714190244675,0.06638452410697937,-0.017989017069339752,-0.04843197017908096,0.09963148087263107,0.9936822056770325
1610713935571843610,119,1610713935571646463,crazyflie/base_link,0.028131669387221336,0.03034193068742752,0.061124954372644424,-0.029059182852506638,-0.04704819992184639,0.08856131881475449,0.9945344924926758
1610713935586274381,120,1610713935586166455,crazyflie/base_link,0.02301563322544098,0.03267296776175499,0.07513120770454407,-0.04704819992184639,-0.03736180439591408,0.13145819306373596,0.9894995093345642
1610713935594689311,121,1610713935594492376,crazyflie/base_link,0.021149473264813423,0.027397852391004562,0.07454010844230652,-0.0567345917224884,-0.03321049362421036,0.09548017382621765,0.9932581782341003
1610713935603030724,122,1610713935602870223,crazyflie/base_link,0.018731804564595222,0.025102563202381134,0.07239934056997299,-0.06918852776288986,-0.024907870218157768,0.07472360879182816,0.9944892525672913
1610713935615617813,123,1610713935615471845,crazyflie/base_link,0.005118434317409992,0.031095704063773155,0.09419199079275131,-0.08441001176834106,-0.01107016485184431,0.20894935727119446,0.9742138385772705
1610713935624169523,124,1610713935624041988,crazyflie/base_link,0.004004240036010742,0.028815211728215218,0.09327012300491333,-0.09548017382621765,-0.004151311703026295,0.16743624210357666,0.9812397360801697
1610713935632419074,125,1610713935632291497,crazyflie/base_link,-0.0086027467623353,0.03318296745419502,0.11118270456790924,-0.10793410241603851,0.012453935109078884,0.31273216009140015,0.9436067938804626
1610713935642913048,126,1610713935642597999,crazyflie/base_link,-0.003926984500139952,0.03175877034664154,0.09942178428173065,-0.11762050539255142,0.023524099960923195,0.22832214832305908,0.966168224811554
1610713935653021947,127,1610713935652722780,crazyflie/base_link,-0.012047473341226578,0.03479045256972313,0.1076849177479744,-0.12453935295343399,0.040129344910383224,0.3570128083229065,0.9248899817466736
1610713935665921618,128,1610713935665677703,crazyflie/base_link,-0.011613063514232635,0.03407435864210129,0.10990718007087708,-0.13560952246189117,0.04843197017908096,0.24215984344482422,0.9594910144805908
1610713935672680843,129,1610713935672406846,crazyflie/base_link,-0.010312629863619804,0.03521550074219704,0.10862986743450165,-0.14114460349082947,0.0567345917224884,0.11623673141002655,0.9815031290054321
1610713935685163803,130,1610713935684961485,crazyflie/base_link,-0.015798065811395645,0.03681258484721184,0.10303691029548645,-0.14114460349082947,0.0774911567568779,0.3044295310974121,0.9388269186019897
1610713935694073601,131,1610713935693755821,crazyflie/base_link,-0.014411338604986668,0.04026849940419197,0.10505440831184387,-0.1452959030866623,0.08441001176834106,0.15636608004570007,0.9733004570007324
1610713935703069891,132,1610713935702822973,crazyflie/base_link,-0.0234387069940567,0.03883601725101471,0.10943417996168137,-0.14114460349082947,0.0982477143406868,0.32795363664627075,0.9289090633392334
1610713935713990004,133,1610713935713778497,crazyflie/base_link,-0.023744303733110428,0.04325052350759506,0.1143670305609703,-0.14114460349082947,0.10516656935214996,0.22001951932907104,0.9594840407371521
1610713935725125194,134,1610713935724875882,crazyflie/base_link,-0.03177636116743088,0.04044690355658531,0.11967930942773819,-0.1300744265317917,0.1134691834449768,0.3348724842071533,0.9263184070587158
1610713935731643780,135,1610713935731441050,crazyflie/base_link,-0.02585131675004959,0.05123515799641609,0.11711844801902771,-0.12730689346790314,0.11623673141002655,0.17435508966445923,0.969475269317627
1610713935743856589,136,1610713935743558623,crazyflie/base_link,-0.03123670443892479,0.04517665505409241,0.110524483025074,-0.10655033588409424,0.1190042719244957,0.2850567400455475,0.9451072216033936
1610713935763894156,137,1610713935763736040,crazyflie/base_link,-0.012751985341310501,0.07009479403495789,0.0948462262749672,-0.08441001176834106,0.10655033588409424,-0.0013837706064805388,0.9907169342041016
1610713935772044746,138,1610713935771910110,crazyflie/base_link,-0.030128292739391327,0.07123997062444687,0.12430718541145325,-0.06365344673395157,0.09548017382621765,0.0982477143406868,0.9885237216949463
1610713935786614066,139,1610713935786452559,crazyflie/base_link,-0.022282812744379044,0.07586775720119476,0.1072155013680458,-0.045664429664611816,0.08717754483222961,0.06918852776288986,0.9927375316619873
1610713935793175265,140,1610713935793018955,crazyflie/base_link,-0.033732835203409195,0.07440569251775742,0.11755867302417755,-0.019372789189219475,0.07333984225988388,0.14391213655471802,0.9866788983345032
1610713935803524090,141,1610713935803343681,crazyflie/base_link,-0.0227762870490551,0.09041164070367813,0.11925482004880905,-0.00830262340605259,0.06503721326589584,0.06365344673395157,0.9958159923553467
1610713935812481146,142,1610713935812313562,crazyflie/base_link,-0.03164101019501686,0.09209296852350235,0.12935617566108704,0.015221476554870605,0.05119951069355011,0.10516656935214996,0.9930191040039062
1610713935822814539,143,1610713935822673908,crazyflie/base_link,-0.02156105823814869,0.10665968060493469,0.13243672251701355,0.024907870218157768,0.045664429664611816,0.049815740436315536,0.9974029660224915
1610713935834477305,144,1610713935834343664,crazyflie/base_link,-0.013683938421308994,0.11634962260723114,0.1271839141845703,0.03321049362421036,0.03874557837843895,0.009686394594609737,0.998650074005127
1610713935844775839,145,1610713935844659597,crazyflie/base_link,-0.023706959560513496,0.10946827381849289,0.12276969850063324,0.0567345917224884,0.029059182852506638,0.07333984225988388,0.9952678084373474
1610713935853727814,146,1610713935853589020,crazyflie/base_link,-0.018579376861453056,0.11918964236974716,0.12437767535448074,0.062269676476716995,0.027675412595272064,0.049815740436315536,0.9964311122894287
1610713935864464921,147,1610713935864340693,crazyflie/base_link,-0.021838651970028877,0.11977436393499374,0.12913157045841217,0.0774911567568779,0.024907870218157768,0.07333984225988388,0.9939798712730408
1610713935874661995,148,1610713935874565292,crazyflie/base_link,-0.020095841959118843,0.130407452583313,0.13367223739624023,0.0774911567568779,0.024907870218157768,0.05950213596224785,0.994904100894928
1610713935883627892,149,1610713935883482938,crazyflie/base_link,-0.027096444740891457,0.11717016994953156,0.11269514262676239,0.08994509279727936,0.023524099960923195,0.0982477143406868,0.9908096790313721
1610713935895641208,150,1610713935895486792,crazyflie/base_link,-0.027469957247376442,0.12317865341901779,0.11471222341060638,0.09132885932922363,0.024907870218157768,0.0982477143406868,0.9906492829322815
1610713935904692211,151,1610713935904496846,crazyflie/base_link,-0.025570683181285858,0.12700854241847992,0.11516454070806503,0.09271262586116791,0.02629164233803749,0.09271262586116791,0.9910184144973755
1610713935914083983,152,1610713935913955121,crazyflie/base_link,-0.028355319052934647,0.12508979439735413,0.1155446320772171,0.0982477143406868,0.023524099960923195,0.10655033588409424,0.9891617894172668
1610713935923202185,153,1610713935923039182,crazyflie/base_link,-0.02650638297200203,0.12833042442798615,0.11643600463867188,0.0982477143406868,0.023524099960923195,0.10101525485515594,0.9897423386573792
1610713935932110440,154,1610713935931905028,crazyflie/base_link,-0.0326182022690773,0.12255723029375076,0.1128147542476654,0.10378279536962509,0.01660524681210518,0.12453935295343399,0.9866322875022888
1610713935944720401,155,1610713935944530265,crazyflie/base_link,-0.03729512542486191,0.11753227561712265,0.09358177334070206,0.10378279536962509,0.01107016485184431,0.13560952246189117,0.9852495193481445
1610713935955551258,156,1610713935955331520,crazyflie/base_link,-0.040659256279468536,0.1141233891248703,0.08888224512338638,0.10655033588409424,0.004151311703026295,0.14667968451976776,0.9834199547767639
1610713935966520660,157,1610713935966347986,crazyflie/base_link,-0.0341784730553627,0.11781760305166245,0.09164226055145264,0.10655033588409424,0.0,0.12315557897090912,0.9866507649421692
1610713935975551696,158,1610713935975330038,crazyflie/base_link,-0.04023692384362221,0.11576732993125916,0.08865893632173538,0.10793410241603851,-0.00830262340605259,0.14252837002277374,0.9838531017303467
1610713935996035459,159,1610713935995781731,crazyflie/base_link,-0.03309886157512665,0.11598362773656845,0.07822395861148834,0.10793410241603851,-0.009686394594609737,0.11485295742750168,0.9874539375305176
1610713936005079394,160,1610713936004953637,crazyflie/base_link,-0.036307305097579956,0.11408285796642303,0.07447987049818039,0.10793410241603851,-0.013837706297636032,0.12453935295343399,0.9862295389175415
1610713936012292956,161,1610713936012173652,crazyflie/base_link,-0.03725668787956238,0.11513923108577728,0.07580775767564774,0.10378279536962509,-0.01660524681210518,0.1286906749010086,0.9860994219779968
1610713936019032549,162,1610713936018803452,crazyflie/base_link,-0.03006586804986,0.11407104134559631,0.07157857716083527,0.10516656935214996,-0.015221476554870605,0.10378279536962509,0.9889072179794312
1610713936027004919,163,1610713936026852627,crazyflie/base_link,-0.031222844496369362,0.11428020149469376,0.07387830317020416,0.10101525485515594,-0.015221476554870605,0.10931787639856339,0.9887435436248779
1610713936033880950,164,1610713936033752015,crazyflie/base_link,-0.03553834557533264,0.1103791818022728,0.06505730748176575,0.09963148087263107,-0.01660524681210518,0.12038803845643997,0.9875750541687012
1610713936046884369,165,1610713936046729032,crazyflie/base_link,-0.034201670438051224,0.10992160439491272,0.06346539407968521,0.09548017382621765,-0.013837706297636032,0.11623673141002655,0.9885246753692627
1610713936053896464,166,1610713936053710070,crazyflie/base_link,-0.029454728588461876,0.10791829973459244,0.055438607931137085,0.09409639984369278,-0.01107016485184431,0.09686394035816193,0.990777850151062
1610713936064830443,167,1610713936064652671,crazyflie/base_link,-0.03274121135473251,0.10502661019563675,0.04802005738019943,0.08994509279727936,-0.01107016485184431,0.10655033588409424,0.9901688694953918
1610713936073695768,168,1610713936073496611,crazyflie/base_link,-0.03369759023189545,0.10265498608350754,0.055723585188388824,0.08164246380329132,-0.009686394594609737,0.11208542436361313,0.9902916550636292
1610713936084281068,169,1610713936084080736,crazyflie/base_link,-0.03504544124007225,0.09938553720712662,0.046077460050582886,0.08025868982076645,-0.01107016485184431,0.11208542436361313,0.9903902411460876
1610713936092849862,170,1610713936092702914,crazyflie/base_link,-0.03279214724898338,0.09675969928503036,0.04908705875277519,0.07195606827735901,-0.01107016485184431,0.10516656935214996,0.9917861819267273
1610713936106169891,171,1610713936106022339,crazyflie/base_link,-0.0311962328851223,0.0947408378124237,0.0377391092479229,0.06918852776288986,-0.012453935109078884,0.09548017382621765,0.9929458498954773
1610713936113762663,172,1610713936113596050,crazyflie/base_link,-0.03305566683411598,0.0899367481470108,0.04317794740200043,0.06088590621948242,-0.013837706297636032,0.10378279536962509,0.9926381707191467
1610713936124461417,173,1610713936124290471,crazyflie/base_link,-0.03142721578478813,0.08901078999042511,0.028942402452230453,0.058118365705013275,-0.015221476554870605,0.09132885932922363,0.994006872177124
1610713936132752112,174,1610713936132619021,crazyflie/base_link,-0.030587641522288322,0.08293625712394714,0.03656638786196709,0.049815740436315536,-0.015221476554870605,0.09132885932922363,0.994457483291626
1610713936145679991,175,1610713936145455225,crazyflie/base_link,-0.027569467201828957,0.07917949557304382,0.031038982793688774,0.04843197017908096,-0.01660524681210518,0.07610738277435303,0.9957842230796814
1610713936152726072,176,1610713936152575318,crazyflie/base_link,-0.02616005577147007,0.07854626327753067,0.017249323427677155,0.045664429664611816,-0.01660524681210518,0.06642098724842072,0.9966078996658325
1610713936163673104,177,1610713936163519710,crazyflie/base_link,-0.026904042810201645,0.06916442513465881,0.02972523123025894,0.03321049362421036,-0.013837706297636032,0.07333984225988388,0.9966578483581543
1610713936172524253,178,1610713936172290124,crazyflie/base_link,-0.026617037132382393,0.06713198125362396,0.01992572471499443,0.029059182852506638,-0.013837706297636032,0.06918852776288986,0.9970842599868774
1610713936192049331,179,1610713936191747065,crazyflie/base_link,-0.026016831398010254,0.051845889538526535,0.02942083217203617,0.013837706297636032,-0.01107016485184431,0.06503721326589584,0.9977254867553711
1610713936202921495,180,1610713936202686050,crazyflie/base_link,-0.028625380247831345,0.042704954743385315,0.040037672966718674,0.0,-0.009686394594609737,0.0774911567568779,0.9969459772109985
1610713936216420043,181,1610713936216203412,crazyflie/base_link,-0.028064511716365814,0.038699377328157425,0.036126215010881424,-0.005535082425922155,-0.009686394594609737,0.07195606827735901,0.9973453879356384
1610713936225665228,182,1610713936225405728,crazyflie/base_link,-0.03069445677101612,0.030046971514821053,0.048492565751075745,-0.019372789189219475,-0.00830262340605259,0.08717754483222961,0.9959697723388672
1610713936232845311,183,1610713936232574316,crazyflie/base_link,-0.03029724769294262,0.025411982089281082,0.04630377143621445,-0.024907870218157768,-0.009686394594609737,0.08025868982076645,0.9964157342910767
1610713936245799089,184,1610713936245571801,crazyflie/base_link,-0.030174242332577705,0.017465483397245407,0.050311796367168427,-0.029059182852506638,-0.009686394594609737,0.07195606827735901,0.9969373345375061
1610713936252710089,185,1610713936252475306,crazyflie/base_link,-0.032684262841939926,0.009731877595186234,0.06395789235830307,-0.041513118892908096,-0.006918853148818016,0.08856131881475449,0.9951812624931335
1610713936263960606,186,1610713936263682430,crazyflie/base_link,-0.033168233931064606,0.004859306383877993,0.06565164029598236,-0.04704819992184639,-0.006918853148818016,0.08717754483222961,0.9950571060180664
1610713936272913300,187,1610713936272655845,crazyflie/base_link,-0.03508880361914635,0.0007717353291809559,0.07663968205451965,-0.058118365705013275,-0.0027675412129610777,0.10655033588409424,0.9926034808158875
1610713936284009065,188,1610713936283754569,crazyflie/base_link,-0.035636067390441895,-0.0023947092704474926,0.07884009927511215,-0.062269676476716995,-0.0013837706064805388,0.10516656935214996,0.9925021529197693
1610713936292977580,189,1610713936292692242,crazyflie/base_link,-0.03696492686867714,-0.0011912366608157754,0.08295684307813644,-0.07195606827735901,0.0013837706064805388,0.12038803845643997,0.990114688873291
1610713936304225457,190,1610713936303978615,crazyflie/base_link,-0.03731329366564751,-0.0026371232233941555,0.0858859196305275,-0.07472360879182816,0.0027675412129610777,0.12453935295343399,0.9893930554389954
1610713936314030034,191,1610713936313722115,crazyflie/base_link,-0.0379180833697319,0.001277849543839693,0.08557908236980438,-0.08025868982076645,0.004151311703026295,0.1342257410287857,0.9876865744590759
1610713936325108959,192,1610713936324864900,crazyflie/base_link,-0.03858942911028862,-0.0025880681350827217,0.09202726930379868,-0.0774911567568779,0.0027675412129610777,0.12315557897090912,0.9893534183502197
1610713936332066668,193,1610713936331813669,crazyflie/base_link,-0.03871201351284981,-0.006044517271220684,0.09728039801120758,-0.07472360879182816,0.0027675412129610777,0.12315557897090912,0.9895662665367126
1610713936343221453,194,1610713936342967311,crazyflie/base_link,-0.03849461302161217,-0.0027163689956068993,0.09405843913555145,-0.07333984225988388,0.004151311703026295,0.13284197449684143,0.9884113669395447
1610713936352034379,195,1610713936351764644,crazyflie/base_link,-0.03960326686501503,-0.0028847665525972843,0.09748785942792892,-0.06918852776288986,0.0013837706064805388,0.12177181243896484,0.9901427626609802
1610713936363286902,196,1610713936363023362,crazyflie/base_link,-0.0398547537624836,-0.0044462853111326694,0.10149525105953217,-0.06365344673395157,0.0013837706064805388,0.12177181243896484,0.9905139803886414
1610713936374261741,197,1610713936374001750,crazyflie/base_link,-0.040529098361730576,-0.004786662757396698,0.10465249419212341,-0.05950213596224785,-0.0,0.1190042719244957,0.9911091923713684
1610713936385373281,198,1610713936385113853,crazyflie/base_link,-0.040113091468811035,-0.003940145950764418,0.10222986340522766,-0.05535082519054413,0.0013837706064805388,0.12592312693595886,0.990493655204773
1610713936392575465,199,1610713936392310156,crazyflie/base_link,-0.04070159047842026,-0.003400605171918869,0.10473761707544327,-0.05258328467607498,0.0,0.12315557897090912,0.990993320941925
1610713936405678063,200,1610713936405405812,crazyflie/base_link,-0.041754208505153656,-0.004120365716516972,0.1079832911491394,-0.04843197017908096,-0.0,0.11485295742750168,0.9922011494636536
1610713936413493261,201,1610713936413219980,crazyflie/base_link,-0.04156062379479408,-0.004566802643239498,0.11128080636262894,-0.045664429664611816,0.0027675412129610777,0.12038803845643997,0.9916722178459167
1610713936422875867,202,1610713936422534806,crazyflie/base_link,-0.042275119572877884,-0.00549390260130167,0.11468546837568283,-0.041513118892908096,0.0027675412129610777,0.11623673141002655,0.9923497438430786
1610713936433619661,203,1610713936433364763,crazyflie/base_link,-0.04179229959845543,-0.005192008335143328,0.11717990785837173,-0.040129344910383224,0.005535082425922155,0.12177181243896484,0.9917311072349548
1610713936442987459,204,1610713936442749523,crazyflie/base_link,-0.042495470494031906,-0.004651239141821861,0.11451183259487152,-0.03874557837843895,0.005535082425922155,0.11623673141002655,0.9924500584602356
1610713936453692696,205,1610713936453468398,crazyflie/base_link,-0.04269809275865555,-0.004811462014913559,0.11689196527004242,-0.03736180439591408,0.006918853148818016,0.11623673141002655,0.9924944639205933
1610713936462963037,206,1610713936462722869,crazyflie/base_link,-0.042957186698913574,-0.005335479974746704,0.11947967857122421,-0.035978034138679504,0.00830262340605259,0.11485295742750168,0.9926960468292236
1610713936473769447,207,1610713936473555325,crazyflie/base_link,-0.04301510751247406,-0.005941376555711031,0.12192530184984207,-0.03321049362421036,0.00830262340605259,0.1134691834449768,0.9929515719413757
1610713936485024215,208,1610713936484806265,crazyflie/base_link,-0.04413961246609688,-0.0056230369955301285,0.12010785937309265,-0.031826723366975784,0.005535082425922155,0.10793410241603851,0.9936330318450928
1610713936492550264,209,1610713936492234329,crazyflie/base_link,-0.0446939542889595,-0.006413723807781935,0.12215036898851395,-0.027675412595272064,0.005535082425922155,0.10516656935214996,0.9940540194511414
1610713936504056759,210,1610713936503808911,crazyflie/base_link,-0.044882193207740784,-0.005978474393486977,0.12404099106788635,-0.02629164233803749,0.005535082425922155,0.10655033588409424,0.9939442276954651
1610713936513524522,211,1610713936513293194,crazyflie/base_link,-0.04534901678562164,-0.006514356005936861,0.12598846852779388,-0.023524099960923195,0.005535082425922155,0.10516656935214996,0.9941609501838684
1610713936524925615,212,1610713936524612888,crazyflie/base_link,-0.045919403433799744,-0.0061620986089110374,0.12763559818267822,-0.02214032970368862,0.004151311703026295,0.10378279536962509,0.9943448901176453
1610713936533861515,213,1610713936533611749,crazyflie/base_link,-0.0458543486893177,-0.006124612409621477,0.1294916421175003,-0.019372789189219475,0.005535082425922155,0.10378279536962509,0.994395911693573
1610713936543147823,214,1610713936542926047,crazyflie/base_link,-0.04572414234280586,-0.005932261236011982,0.12327249348163605,-0.019372789189219475,0.005535082425922155,0.10516656935214996,0.994250476360321
1610713936552067122,215,1610713936551773647,crazyflie/base_link,-0.04641121253371239,-0.005857683252543211,0.12462118268013,-0.017989017069339752,0.005535082425922155,0.10239902138710022,0.9945653080940247
1610713936563265531,216,1610713936562993936,crazyflie/base_link,-0.04664120450615883,-0.005793921183794737,0.1258981078863144,-0.01660524681210518,0.006918853148818016,0.10101525485515594,0.9947222471237183
1610713936572509798,217,1610713936572235754,crazyflie/base_link,-0.04739391803741455,-0.005811568349599838,0.12715056538581848,-0.015221476554870605,0.006918853148818016,0.09963148087263107,0.9948838949203491
1610713936587708704,218,1610713936587429614,crazyflie/base_link,-0.047250550240278244,-0.005856174044311047,0.1258034110069275,-0.015221476554870605,0.00830262340605259,0.09963148087263107,0.9948733448982239
1610713936592821690,219,1610713936592597900,crazyflie/base_link,-0.04780979081988335,-0.005696977023035288,0.126844123005867,-0.015221476554870605,0.00830262340605259,0.0982477143406868,0.9950109124183655
1610713936604095934,220,1610713936603852202,crazyflie/base_link,-0.0483085922896862,-0.00586811825633049,0.12795767188072205,-0.013837706297636032,0.00830262340605259,0.09686394035816193,0.9951668381690979
1610713936613533895,221,1610713936613361077,crazyflie/base_link,-0.048841800540685654,-0.005868295207619667,0.1289817988872528,-0.013837706297636032,0.00830262340605259,0.09548017382621765,0.9953005313873291
1610713936622832219,222,1610713936622601183,crazyflie/base_link,-0.049171291291713715,-0.0055687315762043,0.13002246618270874,-0.013837706297636032,0.009686394594609737,0.09548017382621765,0.9952880144119263
1610713936631804311,223,1610713936631561377,crazyflie/base_link,-0.04969146102666855,-0.005652138032019138,0.1311897486448288,-0.013837706297636032,0.00830262340605259,0.09409639984369278,0.9954322576522827
1610713936643037917,224,1610713936642778239,crazyflie/base_link,-0.050033941864967346,-0.005908994935452938,0.12684287130832672,-0.013837706297636032,0.00830262340605259,0.09409639984369278,0.9954322576522827
1610713936651783672,225,1610713936651563162,crazyflie/base_link,-0.04991185665130615,-0.0058993203565478325,0.1279393881559372,-0.012453935109078884,0.009686394594609737,0.09409639984369278,0.9954380393028259
1610713936665138291,226,1610713936664904947,crazyflie/base_link,-0.050163283944129944,-0.005912302061915398,0.12901510298252106,-0.012453935109078884,0.009686394594609737,0.09271262586116791,0.9955679178237915
1610713936672326374,227,1610713936672038295,crazyflie/base_link,-0.05045017972588539,-0.005594209302216768,0.13010740280151367,-0.012453935109078884,0.009686394594609737,0.09132885932922363,0.9956958293914795
1610713936683563985,228,1610713936683315120,crazyflie/base_link,-0.0509938970208168,-0.005428117699921131,0.13083307445049286,-0.012453935109078884,0.009686394594609737,0.09132885932922363,0.9956958293914795
1610713936694361478,229,1610713936694028400,crazyflie/base_link,-0.05091541260480881,-0.00529542937874794,0.13212986290454865,-0.012453935109078884,0.009686394594609737,0.08994509279727936,0.9958217740058899
1610713936714317816,230,1610713936714056562,crazyflie/base_link,-0.0509299673140049,-0.004687241278588772,0.13489718735218048,-0.013837706297636032,0.01107016485184431,0.08994509279727936,0.9957890510559082
1610713936723509757,231,1610713936723192383,crazyflie/base_link,-0.05084136500954628,-0.004670643247663975,0.1365080028772354,-0.012453935109078884,0.01107016485184431,0.08856131881475449,0.9959313273429871
1610713936732146040,232,1610713936731831448,crazyflie/base_link,-0.05156964436173439,-0.004479484632611275,0.1383620947599411,-0.013837706297636032,0.009686394594609737,0.08856131881475449,0.9959275126457214
1610713936743156885,233,1610713936742888782,crazyflie/base_link,-0.05155092477798462,-0.004735148046165705,0.1335722953081131,-0.015221476554870605,0.009686394594609737,0.08717754483222961,0.9960293769836426
1610713936752133129,234,1610713936751752928,crazyflie/base_link,-0.04899033159017563,-0.005516685079783201,0.13532721996307373,-0.013837706297636032,0.013837706297636032,0.08856131881475449,0.9958784580230713
1610713936763229714,235,1610713936762977277,crazyflie/base_link,-0.048375051468610764,-0.003860275261104107,0.13658407330513,-0.01660524681210518,0.015221476554870605,0.08717754483222961,0.9959380626678467
1610713936782987172,236,1610713936782721374,crazyflie/base_link,-0.04935775697231293,-0.00316556915640831,0.14353786408901215,-0.017989017069339752,0.01107016485184431,0.08579377084970474,0.996088981628418
1610713936793921437,237,1610713936793657280,crazyflie/base_link,-0.04965537041425705,-0.0033307215198874474,0.1460040956735611,-0.01660524681210518,0.009686394594609737,0.08441001176834106,0.9962456226348877
1610713936805292972,238,1610713936805038808,crazyflie/base_link,-0.046182405203580856,-0.005211800802499056,0.14945733547210693,-0.013837706297636032,0.012453935109078884,0.08717754483222961,0.9960188269615173
1610713936813143657,239,1610713936812852798,crazyflie/base_link,-0.048487115651369095,-0.001833094283938408,0.1554165482521057,-0.017989017069339752,0.00830262340605259,0.08441001176834106,0.996234118938446
1610713936824355894,240,1610713936824042705,crazyflie/base_link,-0.04665131866931915,-0.0025143602397292852,0.1591923087835312,-0.01660524681210518,0.00830262340605259,0.08441001176834106,0.9962581396102905
1610713936833523924,241,1610713936833225175,crazyflie/base_link,-0.04676271975040436,-0.002006737282499671,0.16207531094551086,-0.01660524681210518,0.006918853148818016,0.08441001176834106,0.9962686896324158
1610713936842996014,242,1610713936842723620,crazyflie/base_link,-0.047538500279188156,-0.0019069488625973463,0.157213032245636,-0.01660524681210518,0.004151311703026295,0.08302623778581619,0.9964003562927246
1610713936862643767,243,1610713936862339154,crazyflie/base_link,-0.04629557207226753,-0.005738182924687862,0.16409875452518463,-0.009686394594609737,0.0027675412129610777,0.08302623778581619,0.9964964389801025
1610713936875100965,244,1610713936874793095,crazyflie/base_link,-0.0443660169839859,-0.0032717790454626083,0.1685366928577423,-0.01107016485184431,0.004151311703026295,0.08302623778581619,0.9964772462844849
1610713936884592526,245,1610713936884315917,crazyflie/base_link,-0.044868528842926025,-0.0031629495788365602,0.1692870706319809,-0.01107016485184431,0.0027675412129610777,0.08302623778581619,0.9964820146560669
1610713936892016813,246,1610713936891728017,crazyflie/base_link,-0.04500364884734154,-0.002999636111781001,0.1721026450395584,-0.01107016485184431,0.0013837706064805388,0.08164246380329132,0.9965991973876953
1610713936903041894,247,1610713936902791795,crazyflie/base_link,-0.04517446830868721,-0.00277062994427979,0.17491178214550018,-0.012453935109078884,0.0013837706064805388,0.08164246380329132,0.9965829253196716
1610713936914633358,248,1610713936914349476,crazyflie/base_link,-0.04334904998540878,-0.0008474529604427516,0.17770777642726898,-0.013837706297636032,0.0027675412129610777,0.08164246380329132,0.9965617656707764
1610713936926074825,249,1610713936925788021,crazyflie/base_link,-0.044654931873083115,0.00421235803514719,0.1785612553358078,-0.020756559446454048,0.0013837706064805388,0.08302623778581619,0.996330201625824
1610713936933154071,250,1610713936932920303,crazyflie/base_link,-0.043659962713718414,0.0048139262944459915,0.18271014094352722,-0.019372789189219475,0.0027675412129610777,0.08302623778581619,0.9963552355766296
1610713936942575723,251,1610713936942360886,crazyflie/base_link,-0.04341665282845497,0.005071685649454594,0.18324404954910278,-0.017989017069339752,0.0027675412129610777,0.08164246380329132,0.9964954853057861
1610713936951677801,252,1610713936951417031,crazyflie/base_link,-0.04340667277574539,0.004744615405797958,0.18719600141048431,-0.015221476554870605,0.0013837706064805388,0.08025868982076645,0.9966568946838379
1610713936962650138,253,1610713936962433594,crazyflie/base_link,-0.04355258494615555,0.006389026064425707,0.1899220198392868,-0.015221476554870605,0.0,0.08025868982076645,0.9966578483581543
1610713936971567952,254,1610713936971321419,crazyflie/base_link,-0.04367852956056595,0.005371494218707085,0.19411945343017578,-0.009686394594609737,-0.0013837706064805388,0.07887492328882217,0.9968364834785461
1610713936984607103,255,1610713936984355501,crazyflie/base_link,-0.04276324063539505,0.009450460784137249,0.1990772932767868,-0.01107016485184431,-0.0,0.08164246380329132,0.9966002106666565
1610713936991766995,256,1610713936991456796,crazyflie/base_link,-0.04327557608485222,0.01059118751436472,0.202433243393898,-0.00830262340605259,-0.0013837706064805388,0.08025868982076645,0.9967385530471802
1610713937004977965,257,1610713937004652005,crazyflie/base_link,-0.043353669345378876,0.009844535030424595,0.20651841163635254,-0.004151311703026295,-0.0027675412129610777,0.08025868982076645,0.9967616200447083
1610713937012581338,258,1610713937012354065,crazyflie/base_link,-0.04354114085435867,0.01238979585468769,0.20977017283439636,-0.0027675412129610777,-0.0027675412129610777,0.08025868982076645,0.9967663884162903
1610713937023973154,259,1610713937023748366,crazyflie/base_link,-0.04318317770957947,0.012516746297478676,0.21355535089969635,-0.0,-0.0027675412129610777,0.08025868982076645,0.9967702031135559
1610713937034928789,260,1610713937034643693,crazyflie/base_link,-0.043507691472768784,0.01299703773111105,0.21706904470920563,0.0027675412129610777,-0.004151311703026295,0.08025868982076645,0.9967616200447083
1610713937044228656,261,1610713937043979685,crazyflie/base_link,-0.04369762912392616,0.012503732927143574,0.21605519950389862,0.004151311703026295,-0.004151311703026295,0.07887492328882217,0.9968672394752502
1610713937053333983,262,1610713937053034867,crazyflie/base_link,-0.04353128746151924,0.01200549304485321,0.21926003694534302,0.006918853148818016,-0.004151311703026295,0.07887492328882217,0.9968518614768982
1610713937064255141,263,1610713937063942072,crazyflie/base_link,-0.043831683695316315,0.01641850732266903,0.22320538759231567,0.0027675412129610777,-0.0027675412129610777,0.08025868982076645,0.9967663884162903
1610713937072929501,264,1610713937072617033,crazyflie/base_link,-0.04320322722196579,0.018057605251669884,0.2265235036611557,0.0027675412129610777,-0.0027675412129610777,0.08025868982076645,0.9967663884162903
1610713937085887984,265,1610713937085649704,crazyflie/base_link,-0.04304250329732895,0.01876343972980976,0.23101826012134552,0.0027675412129610777,-0.0013837706064805388,0.08025868982076645,0.9967692494392395
1610713937093186066,266,1610713937092928129,crazyflie/base_link,-0.04263496398925781,0.018841145560145378,0.23460039496421814,0.004151311703026295,-0.0,0.08025868982076645,0.9967654347419739
1610713937102238123,267,1610713937101962571,crazyflie/base_link,-0.04211455211043358,0.018836436793208122,0.23810818791389465,0.005535082425922155,0.0,0.07887492328882217,0.9968691468238831
1610713937115466213,268,1610713937115218405,crazyflie/base_link,-0.0418422594666481,0.018544208258390427,0.24155764281749725,0.006918853148818016,0.0013837706064805388,0.07887492328882217,0.9968595504760742
1610713937122970995,269,1610713937122702991,crazyflie/base_link,-0.043210890144109726,0.019050708040595055,0.2450832724571228,0.006918853148818016,-0.0,0.07887492328882217,0.9968605041503906
1610713937133689999,270,1610713937133418624,crazyflie/base_link,-0.04390474781394005,0.02070988528430462,0.24852408468723297,0.006918853148818016,-0.0013837706064805388,0.08025868982076645,0.9967491030693054
1610713937142720981,271,1610713937142481153,crazyflie/base_link,-0.044505126774311066,0.0226302333176136,0.25162678956985474,0.006918853148818016,-0.0013837706064805388,0.08025868982076645,0.9967491030693054
1610713937151617417,272,1610713937151341667,crazyflie/base_link,-0.0448363721370697,0.023346681147813797,0.25498342514038086,0.00830262340605259,-0.0027675412129610777,0.08164246380329132,0.9966232776641846
1610713937162617966,273,1610713937162413244,crazyflie/base_link,-0.04487195611000061,0.02351362071931362,0.25836753845214844,0.009686394594609737,-0.0013837706064805388,0.08025868982076645,0.9967260360717773
1610713937171641717,274,1610713937171403399,crazyflie/base_link,-0.04522912576794624,0.02409159578382969,0.2616788148880005,0.009686394594609737,-0.0027675412129610777,0.08164246380329132,0.9966107606887817
1610713937182770072,275,1610713937182521457,crazyflie/base_link,-0.04496016725897789,0.023723872378468513,0.2688596248626709,0.01107016485184431,-0.0013837706064805388,0.08025868982076645,0.9967116117477417
1610713937193860895,276,1610713937193565348,crazyflie/base_link,-0.04353662580251694,0.02362624742090702,0.27233263850212097,0.012453935109078884,0.0,0.07887492328882217,0.9968067407608032
1610713937205165325,277,1610713937204917484,crazyflie/base_link,-0.0444955937564373,0.02321947179734707,0.27574455738067627,0.012453935109078884,-0.0,0.08025868982076645,0.9966962337493896
1610713937215017067,278,1610713937214725647,crazyflie/base_link,-0.04405529424548149,0.023094061762094498,0.27909958362579346,0.013837706297636032,0.0013837706064805388,0.07887492328882217,0.9967874884605408
1610713937226373069,279,1610713937226129029,crazyflie/base_link,-0.041961055248975754,0.031172368675470352,0.28308993577957153,0.006918853148818016,0.0027675412129610777,0.08025868982076645,0.9967462420463562
1610713937233770900,280,1610713937233507959,crazyflie/base_link,-0.041600387543439865,0.031810782849788666,0.2865023910999298,0.006918853148818016,0.004151311703026295,0.08025868982076645,0.9967414140701294
1610713937243226204,281,1610713937242932273,crazyflie/base_link,-0.041643187403678894,0.032949406653642654,0.2900160253047943,0.005535082425922155,0.004151311703026295,0.08025868982076645,0.9967500567436218
1610713937251991285,282,1610713937251782441,crazyflie/base_link,-0.04166647046804428,0.03408573195338249,0.29329225420951843,0.005535082425922155,0.004151311703026295,0.08025868982076645,0.9967500567436218
1610713937263021713,283,1610713937262705972,crazyflie/base_link,-0.04422904551029205,0.03330326825380325,0.29697874188423157,0.006918853148818016,0.0013837706064805388,0.08302623778581619,0.9965223670005798
1610713937271644694,284,1610713937271346677,crazyflie/base_link,-0.044416334480047226,0.03230112046003342,0.3004457950592041,0.00830262340605259,0.0013837706064805388,0.08164246380329132,0.9966261386871338
1610713937282611218,285,1610713937282362107,crazyflie/base_link,-0.0440596342086792,0.03367318958044052,0.30558276176452637,0.009686394594609737,0.0013837706064805388,0.08164246380329132,0.996613621711731
1610713937291861520,286,1610713937291370442,crazyflie/base_link,-0.042784713208675385,0.03337754309177399,0.3090032935142517,0.012453935109078884,0.0013837706064805388,0.08164246380329132,0.9965829253196716
1610713937302978102,287,1610713937302704564,crazyflie/base_link,-0.0431351363658905,0.03277364745736122,0.31240782141685486,0.013837706297636032,0.0013837706064805388,0.08164246380329132,0.9965646862983704
1610713937314622860,288,1610713937314305842,crazyflie/base_link,-0.046452198177576065,0.034056197851896286,0.3158644735813141,0.015221476554870605,-0.0013837706064805388,0.08441001176834106,0.9963138699531555
1610713937323947646,289,1610713937323698726,crazyflie/base_link,-0.04524852707982063,0.03747493773698807,0.3194085955619812,0.013837706297636032,-0.0,0.08302623778581619,0.9964512586593628
1610713937332936063,290,1610713937332688329,crazyflie/base_link,-0.04517132416367531,0.03712385520339012,0.3228563368320465,0.015221476554870605,0.0,0.08302623778581619,0.9964311122894287
1610713937342210275,291,1610713937342028794,crazyflie/base_link,-0.047651637345552444,0.03664429858326912,0.32349568605422974,0.015221476554870605,-0.0013837706064805388,0.08441001176834106,0.9963138699531555
1610713937353257073,292,1610713937352997308,crazyflie/base_link,-0.045471712946891785,0.03836331143975258,0.3267975151538849,0.013837706297636032,0.0013837706064805388,0.08302623778581619,0.9964503049850464
1610713937362600767,293,1610713937362347107,crazyflie/base_link,-0.047603391110897064,0.03865411877632141,0.3299156427383423,0.012453935109078884,0.0,0.08441001176834106,0.996353268623352
1610713937371651217,294,1610713937371412973,crazyflie/base_link,-0.047177039086818695,0.03802594915032387,0.33303627371788025,0.013837706297636032,0.0013837706064805388,0.08441001176834106,0.9963340759277344
1610713937382771937,295,1610713937382562747,crazyflie/base_link,-0.04636729136109352,0.0378282330930233,0.33935457468032837,0.012453935109078884,0.0027675412129610777,0.08302623778581619,0.9964656829833984
1610713937391972760,296,1610713937391698384,crazyflie/base_link,-0.04532332718372345,0.03833017125725746,0.3425394296646118,0.012453935109078884,0.004151311703026295,0.08302623778581619,0.9964608550071716
1610713937403275470,297,1610713937402982976,crazyflie/base_link,-0.044733431190252304,0.03957093134522438,0.3457026183605194,0.01107016485184431,0.005535082425922155,0.08302623778581619,0.9964705109596252
1610713937414908516,298,1610713937414618363,crazyflie/base_link,-0.043879564851522446,0.040880944579839706,0.3488154411315918,0.009686394594609737,0.006918853148818016,0.08164246380329132,0.9965905547142029
1610713937424236424,299,1610713937423927477,crazyflie/base_link,-0.043410494923591614,0.041841767728328705,0.3518907129764557,0.009686394594609737,0.00830262340605259,0.08164246380329132,0.9965800046920776
1610713937443801609,300,1610713937443506358,crazyflie/base_link,-0.023566443473100662,0.04799384996294975,0.35743042826652527,0.00830262340605259,0.019372789189219475,0.07195606827735901,0.9971851110458374
1610713937449637446,301,1610713937449381329,crazyflie/base_link,-0.024401066824793816,0.047237176448106766,0.3610517382621765,0.009686394594609737,0.01660524681210518,0.07333984225988388,0.9971217513084412
1610713937461964274,302,1610713937461705390,crazyflie/base_link,-0.0209672674536705,0.04854404926300049,0.3635285496711731,0.009686394594609737,0.01660524681210518,0.07333984225988388,0.9971217513084412
1610713937469800370,303,1610713937469558859,crazyflie/base_link,-0.02376089058816433,0.04880669340491295,0.36752617359161377,0.009686394594609737,0.01107016485184431,0.07610738277435303,0.9969911575317383
1610713937481912318,304,1610713937481693471,crazyflie/base_link,-0.026887834072113037,0.048123832792043686,0.3740217387676239,0.01107016485184431,0.005535082425922155,0.07887492328882217,0.9968076944351196
1610713937489863609,305,1610713937489539380,crazyflie/base_link,-0.02990107424557209,0.04524645581841469,0.377432256937027,0.012453935109078884,-0.0,0.08025868982076645,0.9966962337493896
1610713937508193412,306,1610713937507925137,crazyflie/base_link,-0.024650555104017258,0.048281505703926086,0.38045734167099,0.01107016485184431,-0.0027675412129610777,0.07887492328882217,0.9968191981315613
1610713937515972305,307,1610713937515688735,crazyflie/base_link,-0.023725328966975212,0.04835286736488342,0.3834708333015442,0.012453935109078884,-0.006918853148818016,0.07887492328882217,0.9967827200889587
1610713937523618672,308,1610713937523148157,crazyflie/base_link,-0.027099603787064552,0.047829654067754745,0.38652345538139343,0.012453935109078884,-0.01107016485184431,0.08164246380329132,0.9965223670005798
1610713937542864069,309,1610713937542610274,crazyflie/base_link,-0.0271364226937294,0.04386197775602341,0.39327558875083923,0.013837706297636032,-0.015221476554870605,0.08164246380329132,0.99644935131073
1610713937551614672,310,1610713937551316062,crazyflie/base_link,-0.028643978759646416,0.044991109520196915,0.39616578817367554,0.013837706297636032,-0.01660524681210518,0.08302623778581619,0.9963129162788391
1610713937564322577,311,1610713937564020452,crazyflie/base_link,-0.026715638116002083,0.04437178000807762,0.3991432189941406,0.013837706297636032,-0.013837706297636032,0.08302623778581619,0.9963552355766296
1610713937571276073,312,1610713937571000969,crazyflie/base_link,-0.026621362194418907,0.045164838433265686,0.4020729660987854,0.012453935109078884,-0.013837706297636032,0.08302623778581619,0.9963734745979309
1610713937582255130,313,1610713937582018652,crazyflie/base_link,-0.024974744766950607,0.04632959142327309,0.407794713973999,0.009686394594609737,-0.01107016485184431,0.08302623778581619,0.9964388012886047
1610713937593008205,314,1610713937592730084,crazyflie/base_link,-0.026517748832702637,0.04596918448805809,0.4107910394668579,0.009686394594609737,-0.01107016485184431,0.08441001176834106,0.996322512626648
1610713937604019992,315,1610713937603740808,crazyflie/base_link,-0.026050347834825516,0.04699237644672394,0.41377365589141846,0.006918853148818016,-0.009686394594609737,0.08441001176834106,0.9963600039482117
1610713937613228484,316,1610713937612969087,crazyflie/base_link,-0.024592086672782898,0.04724001884460449,0.4167228639125824,0.006918853148818016,-0.00830262340605259,0.08441001176834106,0.9963725209236145
1610713937624434381,317,1610713937624068872,crazyflie/base_link,-0.024874672293663025,0.048636674880981445,0.4196259081363678,0.004151311703026295,-0.009686394594609737,0.08441001176834106,0.9963753819465637
1610713937631395026,318,1610713937631175108,crazyflie/base_link,-0.030937306582927704,0.038847390562295914,0.4227713346481323,0.00830262340605259,-0.013837706297636032,0.08579377084970474,0.9961822032928467
1610713937644169787,319,1610713937643879457,crazyflie/base_link,-0.03222397342324257,0.03882370889186859,0.42516767978668213,0.00830262340605259,-0.015221476554870605,0.08579377084970474,0.9961619973182678
1610713937653348402,320,1610713937653117142,crazyflie/base_link,-0.0327630341053009,0.03766654431819916,0.42791807651519775,0.00830262340605259,-0.015221476554870605,0.08579377084970474,0.9961619973182678
1610713937662711265,321,1610713937662479230,crazyflie/base_link,-0.03244181349873543,0.037026748061180115,0.4307016432285309,0.00830262340605259,-0.015221476554870605,0.08579377084970474,0.9961619973182678
1610713937673555423,322,1610713937673334930,crazyflie/base_link,-0.03602833300828934,0.03489561378955841,0.43318113684654236,0.00830262340605259,-0.01660524681210518,0.08717754483222961,0.9960197806358337
1610713937684955841,323,1610713937684717728,crazyflie/base_link,-0.0340140126645565,0.03536643460392952,0.43667125701904297,0.006918853148818016,-0.012453935109078884,0.08579377084970474,0.996211051940918
1610713937692058052,324,1610713937691804375,crazyflie/base_link,-0.03251029923558235,0.036243002861738205,0.4394625127315521,0.004151311703026295,-0.009686394594609737,0.08579377084970474,0.9962571859359741
1610713937703267640,325,1610713937702983339,crazyflie/base_link,-0.029427018016576767,0.038864776492118835,0.44220614433288574,0.0013837706064805388,-0.005535082425922155,0.08579377084970474,0.9962965846061707
1610713937714883992,326,1610713937714573074,crazyflie/base_link,-0.031544845551252365,0.03624999523162842,0.4448367655277252,-0.0,-0.0027675412129610777,0.08579377084970474,0.9963091015815735
1610713937724271277,327,1610713937724005072,crazyflie/base_link,-0.03575173392891884,0.030803244560956955,0.44744476675987244,-0.0013837706064805388,-0.0027675412129610777,0.08579377084970474,0.9963080883026123
1610713937731473488,328,1610713937731231732,crazyflie/base_link,-0.03459587320685387,0.030825965106487274,0.450015664100647,-0.0027675412129610777,-0.0,0.08579377084970474,0.9963091015815735
1610713937742984517,329,1610713937742692122,crazyflie/base_link,-0.03380924090743065,0.02963840588927269,0.4511481821537018,-0.004151311703026295,0.0013837706064805388,0.08579377084970474,0.9963033199310303
1610713937751833271,330,1610713937751558768,crazyflie/base_link,-0.03371020779013634,0.03174639120697975,0.4535389244556427,-0.006918853148818016,0.0013837706064805388,0.08579377084970474,0.9962879419326782
1610713937762971125,331,1610713937762685380,crazyflie/base_link,-0.03322750702500343,0.031034842133522034,0.4558925926685333,-0.00830262340605259,0.0013837706064805388,0.08579377084970474,0.9962773323059082
1610713937771973048,332,1610713937771669506,crazyflie/base_link,-0.03387031704187393,0.03086998127400875,0.4582493305206299,-0.009686394594609737,0.0013837706064805388,0.08579377084970474,0.9962648749351501
1610713937783632239,333,1610713937783324983,crazyflie/base_link,-0.03367914259433746,0.028106754645705223,0.4608955383300781,-0.009686394594609737,0.0013837706064805388,0.08579377084970474,0.9962648749351501
1610713937789752807,334,1610713937789471420,crazyflie/base_link,-0.03307284414768219,0.025286288931965828,0.4632246792316437,-0.009686394594609737,0.0013837706064805388,0.08441001176834106,0.9963830709457397
1610713937804243258,335,1610713937803993482,crazyflie/base_link,-0.03313472867012024,0.024940822273492813,0.4655052721500397,-0.009686394594609737,0.0013837706064805388,0.08441001176834106,0.9963830709457397
1610713937814143553,336,1610713937813878665,crazyflie/base_link,-0.0348406583070755,0.021939964964985847,0.46776890754699707,-0.009686394594609737,0.0,0.08441001176834106,0.9963840246200562
1610713937823498925,337,1610713937823222151,crazyflie/base_link,-0.036683544516563416,0.023280950263142586,0.4700164794921875,-0.012453935109078884,0.0,0.08441001176834106,0.996353268623352
1610713937829456329,338,1610713937829230723,crazyflie/base_link,-0.036102645099163055,0.021202851086854935,0.4722389876842499,-0.012453935109078884,0.0013837706064805388,0.08441001176834106,0.9963523149490356
1610713937843837200,339,1610713937843565346,crazyflie/base_link,-0.03451913595199585,0.02331949956715107,0.4706459939479828,-0.015221476554870605,0.004151311703026295,0.08579377084970474,0.9961879849433899
1610713937852748355,340,1610713937852522890,crazyflie/base_link,-0.03365694358944893,0.022896284237504005,0.47265470027923584,-0.01660524681210518,0.005535082425922155,0.08579377084970474,0.9961591362953186
1610713937864160823,341,1610713937863891824,crazyflie/base_link,-0.0330347865819931,0.02537347748875618,0.4746040999889374,-0.019372789189219475,0.006918853148818016,0.08579377084970474,0.9961004853248596
1610713937873154992,342,1610713937872872836,crazyflie/base_link,-0.030714252963662148,0.023399468511343002,0.47665366530418396,-0.020756559446454048,0.00830262340605259,0.08579377084970474,0.9960620403289795
1610713937884173522,343,1610713937883940714,crazyflie/base_link,-0.03358983248472214,0.018108027055859566,0.47799205780029297,-0.019372789189219475,0.006918853148818016,0.08441001176834106,0.996218740940094
1610713937902403570,344,1610713937902103689,crazyflie/base_link,-0.03434858098626137,0.01928199641406536,0.4818853437900543,-0.02214032970368862,0.006918853148818016,0.08441001176834106,0.9961610436439514
1610713937914028582,345,1610713937913759644,crazyflie/base_link,-0.02994716353714466,0.021014276891946793,0.48371651768684387,-0.023524099960923195,0.00830262340605259,0.08579377084970474,0.9960005283355713
1610713937923648719,346,1610713937923352706,crazyflie/base_link,-0.03670081868767738,0.0169330183416605,0.4859902560710907,-0.02214032970368862,0.004151311703026295,0.08441001176834106,0.9961764216423035
1610713937929256532,347,1610713937928971188,crazyflie/base_link,-0.03717167675495148,0.017271442338824272,0.4878896474838257,-0.023524099960923195,0.004151311703026295,0.08441001176834106,0.996144711971283
1610713937943345582,348,1610713937943041173,crazyflie/base_link,-0.037567056715488434,0.017634881660342216,0.48867082595825195,-0.023524099960923195,0.0027675412129610777,0.08441001176834106,0.9961495399475098
1610713937949331759,349,1610713937949053125,crazyflie/base_link,-0.03897915035486221,0.017503390088677406,0.4904693365097046,-0.023524099960923195,0.0027675412129610777,0.08302623778581619,0.9962658286094666
1610713937967191125,350,1610713937966894834,crazyflie/base_link,-0.039086148142814636,0.017606312409043312,0.49225836992263794,-0.023524099960923195,0.0027675412129610777,0.08302623778581619,0.9962658286094666
1610713937974402353,351,1610713937974157673,crazyflie/base_link,-0.038276251405477524,0.017864162102341652,0.49405142664909363,-0.023524099960923195,0.004151311703026295,0.08441001176834106,0.996144711971283
1610713937985746361,352,1610713937985552342,crazyflie/base_link,-0.03761931508779526,0.018321743234992027,0.49725982546806335,-0.023524099960923195,0.004151311703026295,0.08441001176834106,0.996144711971283
1610713937989969355,353,1610713937989710118,crazyflie/base_link,-0.038458433002233505,0.018985863775014877,0.4991234838962555,-0.024907870218157768,0.005535082425922155,0.08441001176834106,0.99610435962677
1610713938001855996,354,1610713938001635275,crazyflie/base_link,-0.03709755092859268,0.019693313166499138,0.5010279417037964,-0.024907870218157768,0.006918853148818016,0.08441001176834106,0.9960957169532776
1610713938010214879,355,1610713938010037651,crazyflie/base_link,-0.03822290897369385,0.019622599706053734,0.502994954586029,-0.024907870218157768,0.006918853148818016,0.08302623778581619,0.9962120056152344
1610713938022574236,356,1610713938022359374,crazyflie/base_link,-0.03632627800107002,0.019967500120401382,0.504958987236023,-0.024907870218157768,0.009686394594609737,0.08441001176834106,0.9960726499557495
1610713938031611580,357,1610713938031352284,crazyflie/base_link,-0.0404045507311821,0.019121132791042328,0.5070852041244507,-0.024907870218157768,0.00830262340605259,0.08302623778581619,0.9962014555931091
1610713938042846861,358,1610713938042598837,crazyflie/base_link,-0.03406718373298645,0.019123269245028496,0.507808268070221,-0.023524099960923195,0.012453935109078884,0.08579377084970474,0.9959573149681091
1610713938051606389,359,1610713938051338111,crazyflie/base_link,-0.037814632058143616,0.017793377861380577,0.5099043250083923,-0.02214032970368862,0.009686394594609737,0.08302623778581619,0.9962542653083801
1610713938062911412,360,1610713938062626028,crazyflie/base_link,-0.03960895910859108,0.01668716035783291,0.5119282603263855,-0.02214032970368862,0.009686394594609737,0.08302623778581619,0.9962542653083801
1610713938071624168,361,1610713938071315676,crazyflie/base_link,-0.04264254868030548,0.015399955213069916,0.5139653086662292,-0.020756559446454048,0.006918853148818016,0.08164246380329132,0.9964215159416199
1610713938084528158,362,1610713938084326121,crazyflie/base_link,-0.03321903198957443,0.029393300414085388,0.51741623878479,-0.024907870218157768,0.01107016485184431,0.08441001176834106,0.9960582256317139
1610713938091682259,363,1610713938091432453,crazyflie/base_link,-0.037530817091464996,0.02238079160451889,0.520006000995636,-0.02214032970368862,0.00830262340605259,0.08302623778581619,0.996266782283783
1610713938102855104,364,1610713938102590979,crazyflie/base_link,-0.03916997089982033,0.02504437044262886,0.5221322178840637,-0.02214032970368862,0.006918853148818016,0.08302623778581619,0.9962773323059082
1610713938114301985,365,1610713938114051870,crazyflie/base_link,-0.03913138434290886,0.027729233726859093,0.5242394804954529,-0.02214032970368862,0.006918853148818016,0.08164246380329132,0.9963917136192322
1610713938123606119,366,1610713938123327048,crazyflie/base_link,-0.03992604836821556,0.027333708480000496,0.5264698266983032,-0.02214032970368862,0.005535082425922155,0.08164246380329132,0.9964003562927246
